[
    {
        "index": 0,
        "name": "Kiev",
        "country": "Ukraine",
        "capital": true,
        "location": {
            "lat": 50.431782,
            "long": 30.516382
        }
    },
    {
        "index": 1,
        "name": "New York City",
        "country": "USA",
        "capital": false,
        "location": {
            "lat": 40.7306102,
            "long": -73.935242
        }
    },
    {
        "index": 2,
        "name": "London",
        "country": "Great Britain",
        "capital": true,
        "location": {
            "lat": 51.509865,
            "long": -0.118092
        }
    },
    {
        "index": 3,
        "name": "Paris",
        "country": "France",
        "capital": true,
        "location": {
            "lat": 48.864716,
            "long": 2.349014
        }
    },
    {
        "index": 4,
        "name": "Las Vegas",
        "country": "USA",
        "capital": false,
        "location": {
            "lat": 36.114647,
            "long": -115.172813
        }
    },
    {
        "index": 5,
        "name": "Oslo",
        "country": "Norway",
        "capital": true,
        "location": {
            "lat": 59.911491,
            "long": 10.757933
        }
    },
    {
        "index": 6,
        "name": "Bremen",
        "country": "Germany",
        "capital": false,
        "location": {
            "lat": 53.073635,
            "long": 8.806422
        }
    },
    {
        "index": 7,
        "name": "Amsterdam",
        "country": "Netherlands",
        "capital": true,
        "location": {
            "lat": 52.377956,
            "long": 4.89707
        }
    }
]